Latitude,Longitude,town,country,strikes,deaths,injuries,civilians,children,photo_height,photo_reference,photo_width,photo_attribution
15.47467,45.322755,Marib Province,Yemen,2,10,0,0,0,716,CmRaAAAA1WhdHWfBxtLeIo9StUWwGheDjqhclqEj3wVHMYMDeteLGg0yrkF0Qeiml7ak3mXcZWWmR5twpjigPzZ_yhvoUSl78UW_jZuYaXTkwC6Mfz8mZ5B2XrChwGoBBuRa00azEhBGPUOqx3nXk8w9VMhkzKBTGhS-haiFLJyzxXgPj6MHQxcRoLa-xQ,716,"<a href=""https://maps.google.com/maps/contrib/109295648168801779286/photos"">محمد العقاب</a>"
32.30512565,69.57624435,Wana,Pakistan,5,28,14,6,2,405,CmRaAAAAArgqUy8u0P0o-2r-tWAPoZ2pyA1W1KO5R1gWEow_kZ4sfY4pX_vjtmgM4-GcwnTsEiaZ3u8pweB9qVxU2X8OvH92yBPJpXsvd7dlTp795po5Xl22LbwInyYen_aAZB_uEhD52H_RSJZ2W4X3p7nr_S9iGhQJqHNnD9JnkYOacKtUOlha5-MnGQ,720,"<a href=""https://maps.google.com/maps/contrib/110330694830448843035/photos"">ZAhOOr KhAN WaZIr</a>"
32.98677989,70.26082993,Toorikhel,Pakistan,3,10,3,0,0,""
32.99988191,70.34082413,Mosaki,Pakistan,3,15,3,4,4,""
33.00866349,70.04196167,Haisori,Pakistan,1,5,0,2,2,""
33.09499311,70.05912781,Saidgai,Pakistan,3,25,30,13,1,1488,CmRaAAAAr-xNi4Vr2FZXLbDX180LWX2rVHjT2JouyJSV1UKOWrEejam4BOVyO4fboW0AnVg8C-CPM_d9Hd6wAhpLYnC7e6JC1-kCjt5kuEE7KMJPQvS3smrmsyUMP5ZdyI7JujdGEhCnvKZyHi4vTF8r7JJLyF_WGhT3i8-5ho8jNrSNB5hJMMaytpXSFQ,2560,"<a href=""https://maps.google.com/maps/contrib/100493049715599909577/photos"">Haq Nawaz</a>"
34.81549453,71.4969635,Damadola,Pakistan,3,45,17,14,8,""
34.83634999,71.49215698,Chenegai,Pakistan,1,81,3,80,69,""
32.83575063,69.55581665,Zamazola,Pakistan,1,8,0,8,0,""
32.98879572,70.28743744,Mami Rogha,Pakistan,1,20,15,0,Unknown,""
33.020179,70.07286072,Danda Darpakhel,Pakistan,13,96,73,23,13,""
32.80285902,70.48690796,Jani Khel,Pakistan,3,6,8,0,0,4128,CmRaAAAAwn8OGK5nEtgFcJ-zHys0-aKQDiCHeYVFp4W_68VuLYVO6d8ZSIsgkIqoox2c73iL1yVXfdmFymg2FWe5qo9R92BHpshknjNnaPn--jLp6uPZ9nEEVdnLv-5kjYjZ1I35EhAx5aP6byHyOalxCkqhzKhwGhRlvttuMpiHw03uoPVtH3OJfOPh_A,2322,"<a href=""https://maps.google.com/maps/contrib/105913168764068474488/photos"">laiq zaman</a>"
32.95826549,70.24108887,Mir Ali,Pakistan,12,70,22,9,3,1024,CmRaAAAADh-XEGfwcyUjJaS6y1PssTuIeCiRaJjI6AMNKMC3TsOwvUNvSBTkIKXG_soCVINTLe-Jjei9ZomOzQFGtXwhCJs7T2ES2dp-jOZ7r2bJADGanjesXuUXQ5UDPWDIB3tHEhBG_BQp3g_22w-nBIV9Aci9GhQTNOMMAgSeTcV4CHzcTe3E1Q-1jg,1280,"<a href=""https://maps.google.com/maps/contrib/111645899623015520365/photos"">Aswar Gen Transpoting</a>"
32.30222379,69.40544128,Azam Warsak,Pakistan,9,52,36,0,0,""
32.30802742,69.45762634,Dhook Pir Bagh,Pakistan,1,12,9,0,0,""
32.62780989,69.84283447,Makeen,Pakistan,4,30,22,0,0,1536,CmRaAAAAJvKOWqkluYGZ907GnndWpiSXw-HLIKCfcOyGunE8hhZN-ehVYWbOAmP_fuY2WV1OxXSU10lYOvAmTm6hicRapFCGqZhkW_MfgOgE6mpTit-6An0jZMqigETbFJ1M0sWJEhA61Fx7QiipcflbDL4mmfBhGhQS1fnlc2JX8tMu-ioEdWb_R9WuVg,2048,"<a href=""https://maps.google.com/maps/contrib/107552437854164349226/photos"">Raza Msd</a>"
32.28655215,69.43222046,Zeralita,Pakistan,1,6,3,1,3,""
32.30280417,69.32510376,Bhaggar,Pakistan,1,13,4,0,Unknown,2988,CmRaAAAA28sLE8PvspX4x1j9AI8OLRBBd_0va-2YajCwbVmlSQ15_yqaIcAmo-QxrwpHpN1igmX1AEcUt0NyTjbzqJUvvKTQU4YWlQFvSlV6Gyem-RtY6fxASWi9UbBAaDvHS2goEhA-Jcd675NQr7v7Uof38G58GhRVgcxb5lg7JpMzOrckLTKdfzIjog,5312,"<a href=""https://maps.google.com/maps/contrib/116958890823004607181/photos"">Farrukh Javed</a>"
32.29758063,69.60062027,Zari Noor,Pakistan,1,8,5,Unknown,0,""
32.1723754,69.33147601,Ganki Khel,Pakistan,4,9,14,13,3,""
32.3219546,69.52079773,Korzai,Pakistan,1,4,4,0,0,""
33.0020414,70.06084442,Miranshah,Pakistan,23,143,108,17,9,540,CmRaAAAAKb1KUkdcpaq78TC_qhTUKYFIB1mr3a3s-cO9VIFpvq-AI19EENLTDYtP95sQxnPiMASuQGxpA9aX8pRShRkv5-3G4sl9HkQhgzMYB2_pWZcmtmkzz8DxONkSLHphS8eFEhDROOBarIdGD4_lH9Gsk_OZGhTjJ_BcA877B5f8hDGcsGEcahrkHA,720,"<a href=""https://maps.google.com/maps/contrib/113397621187292623581/photos"">Emerging PAKISTAN</a>"
32.98677989,70.26082993,Unknown,Pakistan,3,21,0,0,0,""
32.99714649,69.72644806,Mohammad Khel,Pakistan,5,23,10,0,0,1200,CmRaAAAAKzn6nr_lGLUOrDBwyEmoYcMsu-5LOEnWVcyMU_FG8AGAe5E4SmFPUqUKM1IcVPGbsljYbgzfl2V0CjyZjFerd80v5ZgcSop_fNgliCknTxcHTgYyik8ockA2n0qxA2wlEhBxDsLwByAJOBeOgGYz4VflGhRMUqgyEznvGQlv8fdILLRi4_uC0g,1600,"<a href=""https://maps.google.com/maps/contrib/102511204096360141403/photos"">Abdul Majid</a>"
33.03860068,69.53933716,Gurwak,Pakistan,4,29,6,7,4,""
33.00211338,70.0756073,Tol Khel,Pakistan,1,10,14,0,0,""
32.50339198,69.28459167,Baghar Cheena,Pakistan,1,4,3,0,0,""
32.96863543,70.35301208,Khushali,Pakistan,6,23,22,2,0,""
33.151242,70.434707,Datta Khel,Pakistan,37,260,100,64,9,768,CmRaAAAAMz9kiOmwAiJkNdJdLlk-F3aMRwWONkwTEonMfEZqjxiGYtkjiNpitB8IN4YWcff9T0DHw_Nb3PlR62_0ZAwsRsejGbHj3jHkuQqD715hXSr2-TO1l2G0B7De6kTJWeSAEhB9xafl89jDnXVmO632OS4tGhTFXmaKiKqfAs8-262wAhTr2X-tsQ,1024,"<a href=""https://maps.google.com/maps/contrib/109060760079919984302/photos"">Zia Ur Rahman</a>"
32.994267,70.1653862,Tati,Pakistan,1,4,2,4,4,""
32.54131432,69.85279083,Taparghai,Pakistan,2,13,16,4,0,""
32.55100944,69.60783005,Mandata,Pakistan,1,15,2,4,0,""
32.97583606,70.26906967,Asori,Pakistan,1,4,0,0,0,""
32.31760259,69.50054169,Kari Kot,Pakistan,4,17,41,0,0,""
32.74396995,70.06736755,Kumsham,Pakistan,1,11,17,6,0,""
32.7028111,69.86875534,Garyom,Pakistan,1,11,2,3,Unknown,""
32.98015615,70.06530762,Ali Khel,Pakistan,1,4,6,0,0,""
32.98649192,70.04608154,Chashma,Pakistan,1,2,3,0,Unknown,3096,CmRaAAAATE6wh4TUBCOszc2MIKAVCGQlxnr9nae2Aj5JbscKOJjCFAhaSvU5895BLvgYVKt0oWYNPVdphnkWT9liStKEOCvj6XCP4VAxxNPGtqOQDsDWXzXIteslE-eG52WOlqyAEhDO-JqakuyEwxQc8lnsZLYRGhTofl4eIf6MG584J2HAxYYJXhrblg,4128,"<a href=""https://maps.google.com/maps/contrib/106868971837358619178/photos"">Usama Munir</a>"
32.59125977,70.15396057,Kateera,Pakistan,1,3,2,0,0,""
32.97958015,70.08590698,Tapi Tool,Pakistan,1,2,3,0,0,""
32.29337255,69.49728012,Shin Warsak,Pakistan,4,9,13,0,0,""
32.53986719,69.88197327,Madin Village,Pakistan,1,3,5,0,0,3000,CmRaAAAAyZqTbATKXUIo-0zRl2UDPolTRcF0QesNKVdLGaKgYaZnRlBRxDCWIC6eVjwOElVcGX9ts8sIVo5kNtrBWEFVz8btBvRId3hykYsq5vp6d3l4irWytAsUTJAm4LqL-z76EhB65K41wv3vhPfUkgIdoda1GhQPE_rlyp5BfH8xHLruvum5hQ_43w,4512,"<a href=""https://maps.google.com/maps/contrib/109262133893690768896/photos"">MUHAMMAD IMRAN</a>"
32.95340416,70.26224613,Zharki,Pakistan,1,7,1,7,1,""
32.51613104,69.86515045,Narsi Khel,Pakistan,1,26,15,9,1,""
33.68035403,70.29361725,Sur Pul,Pakistan,1,30,7,0,0,""
32.48891359,70.00282288,Sararogha,Pakistan,4,20,14,0,0,""
33.80197352,70.28022766,Barjo,Pakistan,1,14,50,Unknown,0,""
32.96661914,70.31747818,Sokhel,Pakistan,1,4,5,0,0,""
33.66992557,70.91108322,Khadezai,Pakistan,1,12,16,5,3,405,CmRaAAAA7-JbEAOq9VZybbIHrYSw8otc-eyY9xFIFXWcEcYzTTf0TXrQf6qCnjYZuYt0kGGEK_L1lgpNB8Rno1GygeUXf9mReZNYAMcuhdPH1x0RfF6k5ur98_MURaLRmR85kUyiEhB3pdmnaas-BzKlA4QKj3MXGhQTodm5rsM3CdwQMk-ajv3UzQh8kA,720,"<a href=""https://maps.google.com/maps/contrib/113695404686188814741/photos"">Ameen Gull</a>"
32.51699955,69.78326797,Kaniguram,Pakistan,1,6,4,0,0,3024,CmRaAAAA2FuWLvbrEUwfYbbJMNe8SAQgeY-VP-OVkxXuuBD_DGraxTqvzZycvqf2MRJtehiH4iq57uBi1R7DeM_UF5FJzEgvI0-P5O8uOkGInyPo0xzaVWfDpU-HoWYmhg7w8Gf-EhCFeVvgUkU1HvoRoVz6-QqgGhQ3q_L3LsVmWk1nrHoTLbBoZcwplg,4032,"<a href=""https://maps.google.com/maps/contrib/111295245122986075170/photos"">Munir A</a>"
32.47776364,70.01981735,Tabbi Langhar Khel,Pakistan,1,9,7,Unknown,0,""
32.29787083,69.34604645,Sara Khwara,Pakistan,1,8,4,0,0,""
33.00348103,70.2725029,Khesoor,Pakistan,4,41,2,19,0,720,CmRaAAAAZJE-gL_HYFmjmJJAWuxqRh7HJES3ydjVo32vTI0oy-SIp5mtBKTEBNXBKuM_dSNEMWObzsPX2uj5XYfzJrpy2sUutWpppeEVHIhmN3LZIdJIuJz770SDVG4tQykdyOefEhBCuPoDDzo6LpY-Tth7ycSvGhRFyalQHlr_qMH5h6FVwR71mRepQw,1280,"<a href=""https://maps.google.com/maps/contrib/100687781431184445671/photos"">Jawed Shareef</a>"
32.51569678,69.88162994,Marda Algad,Pakistan,1,3,0,0,0,""
32.3273218,69.56783295,Raghzai,Pakistan,1,0,0,0,0,""
33.0020414,70.06084442,Lattaka/Najmarai, Makeen,Pakistan,1,67,27,18,10,""
32.5922382,69.61521149,Mantoi,Pakistan,1,0,0,0,0,""
32.28742287,69.99217987,Zamarai Nairai,Pakistan,1,13,35,0,0,""
32.52568415,69.85038757,Ladha,Pakistan,5,65,33,0,4,2988,CmRaAAAAWqKszL3cvo7nUqbUHIH_KTcakeAi82q8V0u6FVbkNvyk5rTbU_JK9OixGlmk5CZkWTTgd1639FP-BSH5Wc0Mib7DjbTjs46khDkLKWYCfVKuLxz50udlVrVJio9amyyZEhDPZcbde02CurKhYL-UgyySGhRNaNMf-WNItnfc1gJR7ASSl5vbUQ,5312,"<a href=""https://maps.google.com/maps/contrib/115749330981603086907/photos"">haroon rashid</a>"
32.31586172,69.62104797,Painda Khel,Pakistan,1,3,3,0,0,""
32.31586172,69.62104797,Tiyarza,Pakistan,1,0,0,0,0,600,CmRaAAAAgaPlwD7uGJraUIBJCSTNqCNpPo086kL-y2Btf99tOTI16_tRbM9CiOmqkXfK_YS8lKAnIUY9SENCl6WaNXWT9pMXUQbpQ_KAy2KollQawL7NlEGtVjQAga_630ecaJVFEhAu7zqUpRWMPTu9j-i5Zl0MGhR-9l-Yz9PLDqt4cClLEdIClJjKrQ,800,"<a href=""https://maps.google.com/maps/contrib/102152051012305598150/photos"">Khan Khan</a>"
32.70035541,70.06084442,Gariwam,Pakistan,1,5,6,0,0,""
32.99628265,70.30838013,Machi Khel,Pakistan,7,29,21,9,2,""
33.04694673,70.02033234,Darga Mandi,Pakistan,6,40,31,15,4,""
32.98879572,70.32606125,Norak,Pakistan,6,27,19,6,0,""
32.86863007,70.14118195,Spalaga,Pakistan,4,16,16,0,0,""
33.01125461,69.83167648,Shanakorah,Pakistan,1,3,5,0,0,""
33.00146554,69.52835083,Ambar Shaga,Pakistan,3,20,4,6,0,""
32.98217213,69.73880768,Babrak Ziarat,Pakistan,1,5,5,5,0,""
32.9929712,70.21207809,Ghundikala,Pakistan,1,3,4,Unknown,0,""
32.98749984,69.75631714,Sanzali,Pakistan,2,10,8,5,0,""
33.00175347,70.01415253,Tappi,Pakistan,4,18,5,10,1,""
32.99455495,69.7338295,Ismail Khel,Pakistan,2,9,5,0,0,3456,CmRaAAAAR1Z5gk3kSv_FmgHrZJ-A8AtwhZGKppQB1_rvWLSUvAL3CgBngX_9Lg83VCpukqq-Pyiere8L4Ca5JOMhh-FiYw239wsE0sYF1Vt3CjWPZS20DTTNO1QUiCWZ1JIFkresEhD_NGhKMoaUYW9syfJ1PXIdGhS_79hBCK4eCZdN9My8ZtDQ3JADmw,4608,"<a href=""https://maps.google.com/maps/contrib/104445524918363545825/photos"">FARHAD HUSSAIN</a>"
32.66539062,70.16143799,Shaktoi,Pakistan,4,55,25,0,0,""
32.93550496,70.29584885,Zanani,Pakistan,1,5,3,Unknown,0,469,CmRaAAAAc7RWR1a2KdFwrWSo8i83lS9sn7NTzJ5xFZFT6DBNxsS49O6Bsp9_0hFPRmxLChMZeixAGN1K6ZPwJpt23xLyHq7Mq-spxTATa43oYrXgNRQE5ynHCvc0zmajv5Dg-CmPEhCdmSJ9bIQaiOR7Lem202ZuGhRo32dYD7BogqbxNC1F7mMQm2BRFg,700,"<a href=""https://maps.google.com/maps/contrib/111505978439819539130/photos"">Asif Malik</a>"
32.96863543,69.70207214,Deegan,Pakistan,5,40,6,5,0,""
32.97756412,69.64164734,Pai Khel,Pakistan,3,18,3,5,0,""
32.97410796,69.7262764,Toor Narai,Pakistan,1,0,0,Unknown,0,""
32.99973794,70.1902771,Tabbi,Pakistan,3,14,11,0,0,3024,CmRaAAAAO3skdZnBALPgYWErG4z3Hks58eUvnb3s21nok1HIxDUjPzcJP4On0odI605wKh3GFDmrLZvqMMkUYUYDmsxKiR2A1vj4XOG36U3MN1V5xvE8giOj1wnThEGJT-zHr-LVEhA2qfqsgI7_e98y1OPQqqdyGhR1QUvRlGAeaA8oxD7bs5U90YNcGA,4032,"<a href=""https://maps.google.com/maps/contrib/105932722823342459120/photos"">Khushal Kk</a>"
32.99369109,69.61641312,Mizar Madakhel,Pakistan,3,20,12,4,0,""
33.00664813,69.94308472,Hamzoni,Pakistan,1,5,4,Unknown,0,960,CmRaAAAA9wnWo7Xh2obX7mxu3BN-4yNKEWtm-_Xkhz1cJtzBEl3bRPN_eJF6nGy4LN8aFLmhZ5D4yzOfEqX80AyKl5bld9NuvWmUpiCgfEnfT0gHGubn36GA3ZcAkEbcTYdTXQ-2EhCZb64nSCHA5JaY6oKbDEJhGhRWGF4t1h36La4GrZmnmPeAn8ZESQ,720,"<a href=""https://maps.google.com/maps/contrib/103382486644218447393/photos"">Daud Khan</a>"
32.99527483,69.6818161,Inzar,Pakistan,1,5,0,Unknown,0,""
32.98073215,70.05329132,Machis,Pakistan,1,6,3,Unknown,0,5312,CmRaAAAAazSmln2PhxrZBsQ6owCHqYyU_wRMXp-nPluYYIlNKiOLSn61-A6WFGUgTyuCk09vZX2UCRtM9WF1mPIjS6V3gqmQJLB6wSYQTdCh_9svoCpV4R9Fniqc-nhPiPVd4UDhEhCclltvyCfYy6Ta5Le2yqPeGhSdZkuFD8q66KCRN1JXH-BsfgXepw,2988,"<a href=""https://maps.google.com/maps/contrib/107240908418484983616/photos"">Mahboob Ali Alvi</a>"
32.9684554,70.25271893,Hurmuz,Pakistan,2,7,5,0,0,""
33.02133047,69.82566833,Boya,Pakistan,3,27,16,14,4,1920,CmRaAAAAI1R3SBm4b_8QdFbUrLxun-MJNBeP460u1j02BDfpOXqGIsV5KThkOb81I5SGDEaCcSlE_6qqHtaRLl6T6M_xPyEcC9seIhsgLldBFxlAzQ2pFAqjfEAMZHhCIpxDVXnTEhDOe_PO5rmLLPwAueEtWiwNGhSd5BKJpiIa8KmnFDJst1bn5hjERA,1080,"<a href=""https://maps.google.com/maps/contrib/106974781539581727257/photos"">Asif Khan</a>"
33.876401,70.84911346,Khyber,Pakistan,1,5,15,2,0,2358,CmRaAAAAN4ykmW0nzhVoj0XUDUmY5Km35V7c4mdeTnHyM5zm6m4Gm6KiJVRViQm1a92RZ8hMxvZ1IMnqywct0qBhM-gYLlDammgqOPVjy12TWoAdGtppYmNQ45_uYsw9n-kKOZovEhDhDEQgL3VRTq2ADmc7kJMdGhQJWe-UH6MSAET6VhKnKNMNLleDIw,4191,"<a href=""https://maps.google.com/maps/contrib/115890951171877342124/photos"">Mubashar Yasin</a>"
32.28959963,69.29111481,Mizai Nari,Pakistan,1,8,4,Unknown,0,""
32.99628265,69.65615273,Maizer,Pakistan,1,13,12,Unknown,0,""
32.9700756,70.31078339,Haider Khel,Pakistan,3,25,35,0,0,""
32.994267,69.77253914,Sheerani,Pakistan,2,12,0,4,0,""
32.44923085,69.27858353,Dwasarak,Pakistan,1,16,24,Unknown,0,""
32.98922767,70.29808044,Issori,Pakistan,1,14,6,7,0,2322,CmRaAAAAFgnC0NgiPqXBRsVOHgq7F7wZp8cCqBG6MhKyHYNrrandcKx2xIGM6OYG-y03VVRspjpmsDRifGzf2hLyeLqSh0n1x-LTlYmEQg3WG6pg2st2CLnTlQhp0QF2dwE3R7IrEhDHF_Dj8rDwM3aWDhKj_8iyGhTz70M4ddV_9XTsKSnHdvdx4c7scg,4128,"<a href=""https://maps.google.com/maps/contrib/115295769841174744881/photos"">saeed nouman</a>"
32.98418805,70.07663727,Qutab Khel,Pakistan,4,15,2,0,0,2448,CmRaAAAACVf47tS-1Nk4BeSb232SvZizm388iPhnE63lq3ZzD-uxJees6bDiWhpxR9BzL6SQQMIZ_sK2HF2IIf1YFP7zGBePHgSvCvYgnb-dcNnbhHrP3e3onxDCNil_jWbmUiFIEhDFg6kL6PSP9d8-AyJ3moaPGhQROYgUc7nfW9_BMAYqI8W41f3KlQ,3264,"<a href=""https://maps.google.com/maps/contrib/102498405286923729542/photos"">Muzammil Muzammil</a>"
33.68092542,70.41687012,Shahidano,Pakistan,1,9,2,0,0,""
33.47526759,70.38837433,Badshah Kot,Pakistan,1,0,0,Unknown,0,2160,CmRaAAAAFIjQprDXNtNTsWKfnvD1co5dpqE1Kz9AWItA_S-hi29iIZ1izdog8vc5qBOh18hGMUaifHZT0VQ5hfh8lyxN7SAEI4gP683WmIE3mlWTzYAXv-s-Wlo9zqsyZ4xGNZZnEhDJyR7cd22xkk5GcEqajaiBGhSSXOx1oP4n6kpnWHuIVCb-w31L4w,3840,"<a href=""https://maps.google.com/maps/contrib/110782000800322336132/photos"">SHARAFAT ULLAH DAWAR</a>"
33.68778176,70.54870605,Taaloo Ganj,Pakistan,1,3,0,0,0,""
32.97266785,69.71237183,Khar Qamar,Pakistan,1,6,0,0,0,""
32.98706787,69.68730927,Newey Adda,Pakistan,1,5,2,0,0,""
33.01845177,69.65503693,Bushnarai,Pakistan,1,11,4,Unknown,0,""
33.06651369,69.70104218,Darazinda,Pakistan,1,6,0,0,0,1280,CmRaAAAADHNBbi6JX5FZJV963KojzHbqUSHLe_1kjN-f2Djn7HerXDVbg9xXzuUcvjKe7pKe8K0_NacLoe1QRMi343a2BiD-PYmcm6StSgIizJ0g-Wd8Y90HBKALNgGjPpU82UxiEhCmfgcwMcbWdN2jbk7kqYglGhQv-Rbe5r9NNLzBzTWK3z90ldpaWw,1767,"<a href=""https://maps.google.com/maps/contrib/101420900470734313429/photos"">Sherani Khan</a>"
32.46429497,69.29729462,Khand Morsak,Pakistan,1,7,5,Unknown,0,""
33.144896,70.030518,Lawara Mandi,Pakistan,2,8,4,0,0,""
32.4784877,69.27841187,Zeba,Pakistan,1,4,0,Unknown,0,""
32.99138742,69.63993073,Asar Village,Pakistan,1,9,4,0,0,""
32.98764382,69.62619781,Inzarkas,Pakistan,1,8,2,0,0,""
32.974684,70.26323318,Khaisoori,Pakistan,2,4,2,0,2,2988,CmRaAAAAH1PspLq1-Zlx_AxMYFqri6MZWXm7exf1seGQVDMrlRVW1Qu0AiQlY_nOxtqcxowm4Vqm92QHhD7OVqioG_4E8jPkgswo37L1yZEgdzDQAUj7b14PZwLmd9UGe5DzHxFUEhBVtto37CM3LEl0Kd2m2l6OGhTk1UOMwam9FOPb6CMiF7kppQMHDA,5312,"<a href=""https://maps.google.com/maps/contrib/103420447008100243500/photos"">NIshat Paper</a>"
33.01326988,69.85313416,Char Khel,Pakistan,1,5,0,0,0,""
32.99052353,70.30460358,Shiva,Pakistan,1,7,3,0,0,660,CmRaAAAAhSUFJii5lEOGlMuUELDP_ZhlvyA-uOnU7qKF93Vp4TZjv7TxFYTr5rTQe5TUo2PQkqKo7KCmJD_ovGxyfECoKPNfCsvkZ93uHn_6CIE3ds9UTuTNwRNv-YZWqxUWGzjdEhALovuvEC1_2yg1RN1EMe09GhTKJ9OdRDcxJvySgHWCLQaim9xjMA,880,"<a href=""https://maps.google.com/maps/contrib/103440079634997387814/photos"">Aziz Kingrani</a>"
32.97065166,70.29275894,Aziz Khel,Pakistan,1,4,3,Unknown,0,""
32.96201033,70.33344269,Khaso Khel,Pakistan,1,4,0,0,0,""
33.05615526,70.0786972,Ghulam Khan,Pakistan,7,57,12,2,0,""
32.97857214,70.28657913,Khaddi,Pakistan,1,6,0,0,0,1781,CmRaAAAA7oYe-3TJBOe-MtWPZ27TgdnXehxCRinM6UvmLoOYylMEW6mAsVjBMV3p7IkbAcOhEp22prY49LIzdf_MdqX1zEYsRyi2qw9Qz2iHPpO9vfNjZAtRskHwygziQ-lARIVKEhAhbqDm_5ZJn_Kb7Ss5MRimGhRe4VOMN23BvQna4ssIDblDOzc-hA,3166,"<a href=""https://maps.google.com/maps/contrib/103871376383611432762/photos"">Azhar Masood</a>"
32.99210732,70.19491196,Pir Kelev,Pakistan,1,3,0,1,0,""
32.98462003,70.37618637,Hassan Khel,Pakistan,1,0,0,0,0,405,CmRaAAAAfdQBIrTEXVRrhYSlvCbLFRGrFPLMt5OMjPeapdM4B1D6BQLvs1d6w3-1mshfQ_04tPyfTOu8ZptFDfJYJxj6-WcUzmkB9VoYgovSi8crTWK_HUPDrNQ16jZo94egzQusEhDXDBogDMBzNlBRXzozdfMgGhThPEeSiaFFt2WFxw_9JRKmZZkOEA,720,"<a href=""https://maps.google.com/maps/contrib/112594751756047884054/photos"">Hanif Khan</a>"
32.97093969,70.40039063,Khadar Khel,Pakistan,2,6,2,0,0,""
33.00175347,70.01415253,Tirah Valley,Pakistan,2,11,2,0,0,""
33.75117696,70.75332642,Sandana,Pakistan,1,7,11,Unknown,0,""
33.7845691,70.81134796,Nakai,Pakistan,1,11,2,Unknown,0,""
33.79312909,70.76568604,Speen Drang,Pakistan,1,32,0,2,0,""
32.95653704,70.37910461,Shera Tala,Pakistan,1,18,0,Unknown,0,""
33.0285268,70.23971558,Mandi Khel,Pakistan,2,13,0,0,0,""
32.99671457,69.75099564,Ghar Laley,Pakistan,1,4,0,0,0,""
32.99945001,69.60422516,Dashgah,Pakistan,1,3,3,Unknown,0,""
32.99513086,69.62928772,Doga Mada Khel,Pakistan,5,26,2,0,0,""
32.68850937,69.84815598,Razmak,Pakistan,1,4,3,Unknown,0,1944,CmRaAAAA-xeo45Q-U3Es2KHMmYjPJHGUqkcs5fYwSg-MLBWJII8Yh7ErtGxvFiuJhgr9Vp5gK2tRBnQGMDMeA32lcRHScCIlUqNg6m9jwQzNYlCoMCufPM_zVMsIHCpGfx1SNnPmEhCZtX3_X1B0lXpr8MVgA8TOGhSzhGEKRm9vydx1eoZT_gn4jUywzw,2592,"<a href=""https://maps.google.com/maps/contrib/110000641894571902012/photos"">Badshahn Ullah</a>"
32.99714649,70.31164169,Malik Jashdar,Pakistan,2,10,10,0,0,""
32.31252497,69.44955826,Landidog,Pakistan,1,5,3,0,0,""
33.08751456,70.27233124,Ghoroski,Pakistan,1,4,0,Unknown,0,""
32.48659683,69.28321838,Angor Adda,Pakistan,3,12,21,0,0,""
32.9866359,70.31232834,Spinwan,Pakistan,1,25,10,5,3,694,CmRaAAAArNVSV9yYIg8o_by_fC1OyArpv0x6J5HE0ZdY89qw2sfZQPw_rV87ESio0uQAX1LDQPw3YdKVHxCshRv7pDiPvmv0XAeggkEHl4yZdzZz1GtUAOUtaSOtMQrpzGtEwdsVEhDmDgOyOsGBkiCKmemi_ur4GhRUpP3gOXrLPBJQSpnSQOTNHMWzdA,552,"<a href=""https://maps.google.com/maps/contrib/114480628762838491040/photos"">Innm Wazir 12345</a>"
14.653544,47.009442,Shabwah Province,Yemen,10,34,1,0,0,649,CmRaAAAA0oJFkX2t04ENekmXXKnQv52-zxpYIg8FFfgOey-QYBkvCzIZ8_bEcRKVxDp0tVYw2bKj_doDwqLqA_yyF6jFTxwRaQyvSLavUktTEYmN_VQyrF94XEs04zqshJtsCY7NEhCSF6YiJmeM6PVK2F7J2q4DGhT3sgW6HQABrDZHmO3Fci--rfWDTw,720,"<a href=""https://maps.google.com/maps/contrib/114944008170581487437/photos"">فضل لشرف</a>"
33.01175843,69.76086617,Dwa Tooe,Pakistan,1,15,4,6,0,""
32.98699588,70.35129547,Sandasa Village,Pakistan,1,4,2,Unknown,0,""
32.99347512,70.34794807,Aimarki,Pakistan,1,3,0,Unknown,0,""
13.12833,45.38028,Zinjibar,Yemen,5,41,24,4,0,1280,CmRaAAAAjEGlUEPDBH9anQhOXkmx9jFC8uZ80Yh48AYzEDLrIIv5SUgc0v27v6luPPWCx8Yus9_9uGf68ooIJTRHkR-2fBbYUrCes1Q3FAecs-QfZdo_y3PYN_yA8bfuv48qiEH6EhARy03jFjQHKM4A2GMNLSVUGhQFgF9lnSHEnxuwKrajWepqoCux7g,960,"<a href=""https://maps.google.com/maps/contrib/109761913940660772602/photos"">ماجد السعدي</a>"
32.16631296,69.58800316,Ghwa Khwa,Pakistan,1,8,3,Unknown,0,689,CmRaAAAAwPPR54Q6gu5U3485cxh8zWkLQISb-oaxbOfz6XkjJYrTGExfxNYXLbnzbDkI3iIOLfk7xclsb_3CIg4yxJ6_1_WK8AdSncCW8XidQHfBIIh-J8g9M6Gm0oXs4QHwedWpEhCGeNmsmdc7HV7RD9SoKjDWGhQaaEN3sN4pLQT5uRgz5xUQo7xUpg,480,"<a href=""https://maps.google.com/maps/contrib/115030430087953391641/photos"">hamdullah aminkhan</a>"
32.33167334,69.51152802,Shalam Raghzai,Pakistan,1,7,2,Unknown,0,""
32.33994071,69.49659348,Wacha Dana,Pakistan,1,8,3,0,0,""
32.82478811,69.59014893,Darnashtra,Pakistan,1,3,0,Unknown,0,""
32.30563347,69.56388474,Zoynari,Pakistan,1,18,6,Unknown,0,""
33.01873964,69.65881348,Shawal,Pakistan,19,97,44,2,0,300,CmRaAAAA61xI4plg6GKUrijShQoIYsIrkSi0HYnzOI56UQ-CT4Fzs1MfxpQqmLJPq5PZ4VFMuCHOTgXNNvMzxnNYJYYCnEzs3llDqMBFI_LkzNUfgujMyKSv0CVzi0FEx_YO4r2gEhBl9BgAwvwwIZowuRwtOuadGhQtLgH5ejfbykUC2YBokUlAxE9x6g,560,"<a href=""https://maps.google.com/maps/contrib/106895137467607642844/photos"">MOHAMMED TAQEE ISMAIL</a>"
13.612304,46.106282,Raia,Yemen,1,2,1,2,1,""
32.32297004,69.55530167,Karez,Pakistan,1,0,0,0,0,""
13.218055,45.307832,Jaar,Yemen,5,39,6,14,0,960,CmRaAAAAxFDZerhrgE6gjNTAKyH5ify_o5Z_uDITm6ncgo1CEr3wHd32GBAXQt1gKwxGgN1r3aSyttiYONcA7HWlHUKw9FmFnu-ac9s5m2zIjR0mIYF_4qJqA9L8Ednr1QH-E2U5EhBCEwIxGkJPc37_tsUPBQHIGhTMHHTZ6Ubrj1jfzPcOdezhUZOyzg,638,"<a href=""https://maps.google.com/maps/contrib/101691546456639410427/photos"">عدي الشمراني الشمراني</a>"
33.52193394,70.27610779,Khardand,Pakistan,1,7,3,2,0,""
33.52078905,70.25928497,Zarakai,Pakistan,1,3,0,0,0,""
-0.354098,42.545328,Kismayo,Somalia,3,10,2,3,0,2448,CmRaAAAASXfrVNVg2UB2WGmrpiu-Dp8D7_lcCudMNsyyMYbFq0QMEm9EQFxuQQ9gJjnpSUNC2zGoDelVTTQG4tbZ5sexDOZcqXFZ-ZTgsk5dslx9D8NATD-m_O4k-Vbc3SMmW5Y7EhBruiSKvSoeQ3Vz1vC5ZEnkGhTlGaSGP4Aw5G0q3qWTeqQEu1ZzRQ,3264,"<a href=""https://maps.google.com/maps/contrib/113169678033420344213/photos"">Ina Farah</a>"
32.54710258,69.60456848,Shakai,Pakistan,1,14,2,0,0,360,CmRaAAAAEALUE3vNSQ2CmC3jj6Sf45cW1DyVwD9aEiJvAQ5yfVehTjl2TZgutH0V97Y5FAKNcngJYmFpdjhPkojB12L74sTFsr9hMH-uNBcYRzl4WxVzc8YtcGD84oJHKPzCQjE4EhDLs5UJaa_UI66qHmGemkHRGhTodK8InGun2-tv99hTDuaRHEfjvA,480,"<a href=""https://maps.google.com/maps/contrib/111277339691605320078/photos"">Hg Mk</a>"
32.83286589,69.66018677,Barmal,Pakistan,1,5,5,Unknown,0,720,CmRaAAAAKHQsZkFOMv1tAyj9yg52kJzX8yBZbE1iWsIfwirKe1EziOAydWiQYL5Ui8WQV4K64R2_B0Evoxb26wleC0NFO8sT8-Mm4Fhy8zj4TD8-NnFIG2Q3RPbeQhEJrg4J5vsjEhAFn0F2Sg-NVr8bCurk6DpTGhQZbsyZFdckw64QaWL4HiGxRowXog,720,"<a href=""https://maps.google.com/maps/contrib/110044579285403217242/photos"">yasian Ullah</a>"
13.612304,46.106282,Wadeea district, Mudiya,Yemen,1,6,0,30,0,""
13.612304,46.106282,Abyan Province,Yemen,2,4,0,0,0,435,CmRaAAAApTxptvKY1I2uU5EfD6bX4DuE8TET8P5n4nkp9DEZtSpDWsmHkfdkRCL7O9XKEKxC9rtRCKUTXbY4-PbBSHt5C62miYQNliab_0dWUY8PtrS6WWR1mdbkXExW4CgUhwVnEhCNnMulQdBRdJvL0pBbzZMBGhRslT8l-1nYla24w7wCa-XlEF8wdg,684,"<a href=""https://maps.google.com/maps/contrib/108308390497795558864/photos"">Jeem Chan</a>"
13.129616,45.381295,Karadeef, Zinjibar,Yemen,1,5,0,0,0,""
13.612304,46.106282,Al Khamila,Yemen,1,13,17,0,0,""
13.612304,46.106282,Arkoub,Yemen,1,6,0,0,0,""
32.98879572,70.32606125,North Waziristan,Pakistan,1,0,0,0,0,720,CmRaAAAA9au6R-TGdYC90D5QRbv_yXbAAjSDiv0Tpy-bx1-yoYaoY-bpjMbLHHQNCO_fH-XWor6jnIq5giBAf1-B9XAR97IqvB8-NJjd4PxVIKScPTjwqtY0H70mDkfYDEhzS1__EhBL_d5sYtxrJ5FzhibrrPbMGhSJ2U9_LxOJUVn-S00mCeikLblU4Q,960,"<a href=""https://maps.google.com/maps/contrib/117166582113684991997/photos"">Tyuer Tubre</a>"
13.612304,46.106282,Mihfed,Yemen,1,3,2,0,0,""
32.953944,70.262883,Hisokhel,Pakistan,2,8,5,0,0,900,CmRaAAAA-0oWvmY9uum2dRd5ByJNWuIl_ujm30oUIiS3lHEcT8cfnrPpdHygcAhvIcDmQXypeMpBHgOIja6WF0y_dhRINp1hRWDDC1AlS_j8fqxw8T0IHdAUAsMx0l2eoJpGu2pBEhDjf0JxJFOf6E44vZsNnGcbGhRjy_QunvXRjmLgCDg5Y3aYKgh8mQ,1600,"<a href=""https://maps.google.com/maps/contrib/102750279875104439026/photos"">Ghulam Mustafa</a>"
14.037484,46.768075,Al-Mahfad,Yemen,2,15,0,0,0,""
13.358082,45.698439,Shaqra,Yemen,3,15,3,7,6,720,CmRaAAAA18Gw_4q3d4jwdtT9TNiLqOGPUkSBN0rYc1JbYDrC54KFxYJBPvPaqbvzgeIhovwCnV0lHeQW-9_a5_y5o4JwykikshhWLky0pFlxKhzr5zjMmr-X0PV1c5MKmoQbg6OQEhBTz6ePP8MfbvlE4QNTKQLuGhQaAvurdt7ji-Jx636XhPMh42rdbw,1280,"<a href=""https://maps.google.com/maps/contrib/105049932052034757443/photos"">وهبي جوبان</a>"
32.30280417,69.32510376,Baghar,Pakistan,1,3,5,0,0,2048,CmRZAAAAdCCChbXUETzFRdjDEFYOYbgar-GZXVRbOnKo2jEjqhH2x88yMrz7a4Wo4Qqdm-3fiZuOmp9ASAYwAxbu5u7FpE3JTIGtj8zM_QVEPbGX-Uf2E7rQrFhM1BFeDkerAC0ZEhB5pDoQf3FfFXMM-ntu_WybGhQ5OdmDUOvGBmF9ATdBvrzAnwrJcA,1536,"<a href=""https://maps.google.com/maps/contrib/103895837727078171957/photos"">Ikram Zahid</a>"
16.565146,45.538211,Al Jawf Province,Yemen,2,7,0,0,0,3312,CmRaAAAA7AAb0qpxlGm41_dZisvPKRNcSUezVM6WIl_YRHN2k74I__F9Fcjz-ExDYb8rplRrlq8eATXMb8gMAQtJvSiuq1UC8XKg4x87Bt_qdoft_vjZ0VOqTs68bQdKWbtBAuEvEhCWuy8H_bj2avZiH9PbZ2TnGhQeePXvJoGgHiPFPmIixK_z1WKgwg,4416,"<a href=""https://maps.google.com/maps/contrib/111895790763305768016/photos"">mokbal awd</a>"
-0.117925,42.326611,Dolbiyow,Somalia,1,4,1,4,0,""
32.4784877,69.27841187,Zeba Pahar,Pakistan,1,3,3,0,0,""
14.33936309,47.44163168,Azan,Yemen,4,14,6,4,3,720,CmRaAAAANzcDSdsu1UGBFInzK2azd-rzJP8lowFC4ifLymduIDuOv7NikBlVK3BnweIzhX1TvPs4bqwah4KeVJFMwVkLDzboMonU3N0vqsN0euWYgeDZzW4yff7TgFzetQsCSW5gEhAnx9Tdi0OJ72lRp53LGK6OGhSQIyAJMsWn5rawISLyGmcck6xCdQ,960,"<a href=""https://maps.google.com/maps/contrib/113490400253777297569/photos"">Awadh Ali</a>"
32.327033,69.596401,Baghar Chinah,Pakistan,1,3,3,0,0,""
-0.354098,42.545328,Afmadow,Somalia,1,11,20,11,0,2448,CmRaAAAAp0w06aoSaTby-M0Nj37dp2DxI-APE3AhCkfBqRM04uVxGpSR41yF1vfLbwwDkcBy7Qv1_b1rQOcE2nST3LbwnR6dqgu7HeDWJayjbF3athsDoPL8MWAN2qXwIOm87kYCEhC5krgjoq6dhiewBcstCWn2GhQS6tDAk7m1NdzAj88_zvLj2lVqnw,3264,"<a href=""https://maps.google.com/maps/contrib/105657975835122115319/photos"">liban hirsi sh. madey</a>"
32.664167,70.218333,Bobar,Pakistan,1,13,6,0,0,""
13.612304,46.106282,Rumeila,Yemen,1,null,0,0,0,""
2.140976,45.118861,Afgoye,Somalia,1,1,0,0,0,640,CmRaAAAAA2UxBel_IXVWgWUboY4WuzhOszMmC0zMneA_VrjOUzaKR9NBqU8AoFI9cPDYjaKnIuBgyCJnY-GgEFlcQ7jRrX2wFxOeEEG1PQ_tlVYT9Y7VkSksnOzs99YwELpOtmCAEhDxhMD7Tiv-0CMbVpdg8GQrGhRgogniOVurzpgc68oPtU-WoRQrNg,960,"<a href=""https://maps.google.com/maps/contrib/102891479803907710492/photos"">Cali Cabdi</a>"
32.620038,69.976425,Babar Ghar,Pakistan,3,30,19,0,0,""
2.084754,45.210714,Elasha Biyaha,Somalia,1,1,0,0,0,483,CmRaAAAA7c5C5urnss5SSTknZ1A-mfL-2Jr7dUl6FC0Ts__9sJldx_AePoQ-4mjz4I2u8_jAcIOjVmIkeZ--rBZvYmmPBnVj9KJ4XkwBKvXxQjLA1uY5MYyLyUl4C0PgfRztp3mCEhBwgGBg--iMQmxl0RYUlliCGhQS3Is7jzIaofbguZGQ9RiwPW_Lcg,644,"<a href=""https://maps.google.com/maps/contrib/109721296531089313124/photos"">Siisii Siisii</a>"
13.880199,45.86811,Lawdar/Modya,Yemen,1,10,0,0,0,""
2.192222,42.874722,60km south of Mogadishu,Somalia,1,4,0,0,0,""
32.321955,69.864395,Shaktoi Mandao,Pakistan,1,8,3,0,0,""
32.321955,69.864395,Nishpa,Pakistan,1,0,0,0,0,""
14.099622,45.432054,Al Bayda Province,Yemen,5,30,55,0,0,720,CmRaAAAA4lSqtoMw3HedoLVMOEvxz-MyizAzol4qydlXc6dgE9mCRjQtMy7JIkEV3FLmyGbqse1e7ahR5QSvcpLsrwDSngDL7ohQIcEARZ2jLV7_xn-F-MP9YUH8rGABkaE7qRLrEhC-3IlfzmUgHUySgsCBCxYbGhRbhMWVSwa-XKBhwjAqsGhpcPjRSw,960,"<a href=""https://maps.google.com/maps/contrib/104264216274866562445/photos"">21 almohajer</a>"
13.129616,45.381295,Jaar and Zinjibar,Yemen,1,24,0,0,0,""
13.219465,45.310246,Jebel Khanfar,Yemen,1,3,0,0,0,""
32.82103747,69.97999191,Drey Nishtar,Pakistan,1,6,4,0,0,""
32.7026315,69.9816857,Shawa,Pakistan,1,7,3,0,0,538,CmRaAAAA_d1b53g4udxYBfA-S-632iThSQxiK4263tN535IsaKQPYXgNN99dWnZj7li9WCAm6_tArWfUCW7pOwANtAzugxVLr8hmDhRoTXqk33SUXestyaTx3Gt8yQxTRCgoYcCjEhAH4REIhNiUMAntZt3aYB_OGhRahjvRWjIFm9MMpjzj9qT0_AvCSQ,539,"<a href=""https://maps.google.com/maps/contrib/106243086157397491701/photos"">Maula Noor Khan</a>"
13.612304,46.106282,Lahij and Abyan Provinces,Yemen,1,38,0,0,0,""
13.085664,45.361154,Al Kawd,Yemen,1,16,0,0,0,""
13.880199,45.86811,Lawder,Yemen,3,26,10,0,0,582,CmRaAAAAwxD6Og1xJQ6ECdpvsie8FM5TAo8FjnSvhmtWrcHiqxV3dpfyNBfeLHpP5Qyf8gvaRxVV3lk6yoUhWxMZrhjRw569cb0QgKuoeuSA0zCSoJoOs_WVyiSvtIrwzW9TeROHEhA8TxndawgRnjuZlujjGZ5hGhTHwStyTcmrlt6SmHMj381ytOT-3g,720,"<a href=""https://maps.google.com/maps/contrib/117023177820034581380/photos"">محمد السعدي</a>"
14.099622,45.432054,al Zahir district,Yemen,1,7,0,0,0,""
14.33936309,47.44163168,Azzan,Yemen,5,null,0,0,0,720,CmRaAAAAymz5D0Gt87_P0i6z_9zr7fyA1IXXqsHF6o4syg28ZPYz36HWhUgmZfLO7rXjPeSmaDfWEm1F8PurI87UOLPqi-S43GqGD4IuRODkk7cEkskfnOuxZg6ddab7EBFkMj91EhB9oNOWzRAvRQJB-WzvQ40HGhTB_VkA-FJkcypgnvZcKbakN-Y6Gg,960,"<a href=""https://maps.google.com/maps/contrib/113490400253777297569/photos"">Awadh Ali</a>"
15.460938,45.321382,Al-Samdah,Yemen,1,4,0,0,0,""
14.653544,47.009442,Nasab,Yemen,1,3,2,0,0,""
13.612304,46.106282,Mudiyah,Yemen,1,3,0,0,0,640,CmRaAAAAjeEtaD0zXs9EFD-l845_EcBieI8gtowlwa_QM8JPuU873nwQUxWK_56fu4DJAM1VOcPqyYiuASOhZ7cs_9Ofk-pNHyGSAoshNRjfuDomvmQwjeAPsMvr-gr92WgxZ5VxEhBVE3-ANmSt-jTK8a-3q1jnGhQ9-84VeIT2lMlwUiioz8qwB1oFng,640,"<a href=""https://maps.google.com/maps/contrib/102781661543787355233/photos"">ابـــن الجنوب al.raghy</a>"
14.653544,47.009442,Wadi Rafad,Yemen,1,2,0,1,0,""
13.358082,45.698439,Shaqra, near Zinjibar,Yemen,1,2,0,0,0,""
15.460938,45.321382,Al-Hosoon village,Yemen,1,6,0,0,0,""
14.653544,47.009442,Hareeb,Yemen,2,13,0,1,1,""
12.97214906,44.95211601,Al-Aeen, near Aden,Yemen,1,6,0,0,0,""
16.539117,49.149095,Shibam,Yemen,2,3,0,0,0,479,CmRaAAAAPsenaNHagOGiKjFUeXQVE1lj_qr23O18wUhCoQyFcjv-NYbaDPrT-KrnRFtyKFVJOrjin_tQMCJYV9qr6SMq5kp2N_N1U7gq8ypAiiOJ2n3iuwzDdQJOSV8oSKkeYZDlEhD2-XTk0rqrsrzA5K_JqemkGhRikSzVwXkaKUVWON6Hxy5aQb6mTw,640,"<a href=""https://maps.google.com/maps/contrib/104740980810773944568/photos"">JÁMÈÉĽ ábdoh</a>"
33.17721515,70.43678284,Datta Khel Kalai,Pakistan,1,4,2,0,0,""
32.96201033,70.33344269,Khassokhel near Mir Ali,Pakistan,2,15,7,3,0,""
14.099622,45.432054,Manaseh,Yemen,2,5,7,0,0,""
14.533333,49.133333,Al Mukalla,Yemen,1,5,0,0,0,720,CmRaAAAAw86Ehyqag4DKsBv7qvkjQDfLPihBxPjB-NcWClTMEPEj6jwH29oktQihOm5X9dZfwHnHA0ig6qK5NGb5WnIalRXG-seBupucvS6Hhw4K7wje3ba-Ic-RmvxoMl1XtPk5EhBRFzNxXpeMbWdNNx0MnBNIGhQJkjCy34Iz0tUe6CPSyugmTe6f1w,960,"<a href=""https://maps.google.com/maps/contrib/116678750589547985524/photos"">مجاهد صالح باكرمان</a>"
32.309551,69.572983,Khawashi Khel, near Wana,Pakistan,1,2,0,0,0,""
32.98879572,70.28743744,Mana Raghzai, near Wana,Pakistan,1,7,10,Unknown,0,""
32.98462003,70.37618637,Hesokhel, near Mir Ali,Pakistan,1,1,4,0,0,""
32.98764382,69.62619781,Isha, near Miranshah,Pakistan,1,4,0,0,0,""
14.036984,46.769534,Al Mahfad,Yemen,8,25,16,1,0,""
12.96889753,44.94736314,Aden,Yemen,1,3,Unknown,0,0,960,CmRaAAAABo5KHagFOGhkfXTykmTnt2nbbXqawkJx8zGBoy03xZ-RPeJk-4NuWKhQQWKjACtMXZ72jM6ANz_ohXUNilsozo3zq-54WnaK5DKXQvmFOYRlqEGr_Ba_bnWWdc4foLKcEhDX_e5u9p9_SGCPxl9jV9b-GhSaweqnJFzbXdscg9oum2E-YCSWVw,1280,"<a href=""https://maps.google.com/maps/contrib/101362624735503241439/photos"">سعيد الحربي</a>"
32.82103747,69.97999191,Dre Nishter/Shawal,Pakistan,2,17,5,0,0,""
14.79368,45.719776,Bayhan,Yemen,1,2,2,0,0,720,CmRaAAAAa713ojCtVVmP7uEEzsX-01srM98rIlTTZwG_WOlqAKHB0FKnL8QK9o94-ilUBw5aRcoBdOR7IX6Jam8Dxd4nfZJslOMKm4FK9hWHB5ErtP_zM75FywNSkiJwnQGKLCvzEhA30lzTzYPRPpUXaPvcyTr5GhTOx6PCxYmCzPGH_0eODhgQSZMg0A,1280,"<a href=""https://maps.google.com/maps/contrib/116954731455938476464/photos"">عبدربه المنصوري العريفي</a>"
32.9387751,70.2482734,Kushhali Turkhel,Pakistan,1,4,4,0,0,""
16.539117,49.149095,Al Qatn,Yemen,6,15,4,0,0,459,CmRaAAAAF08l2wjonr1yBlmTklmvy3R-8aHHjRxAcG3Pn4NGddSAVgbGCXZq-vODi763Hl76heDUxpAkk1jRgvBXsoGg9PfPf3yG7J0aaZiLE_Nl_NrYKhtOKwrv_XMjDF5KxpFuEhBkZ_pCq5m3wnVop2XU_IKxGhTKmM7I4uKytruT8aBFGTzusrdK7g,767,"<a href=""https://maps.google.com/maps/contrib/111241848049086454939/photos"">بو محمد</a>"
14.099622,45.432054,Rada'a city,Yemen,1,7,0,0,0,540,CmRaAAAAonvEK6YTzxeFZAqhAR8jUUf5IjMJreorJYeLf8i3D3SQEK-_4XIZlHY9LhXtD0-eXdCibSbkmJ5XQP72yBTp0TSBhuwRz2wLF5bml87vztAqwQVTuLEx53UjZoN88XdCEhB9U6jM4PPWehRaphPog0qqGhRqSaVZNkte1Z5ATYpBhOAii05yqA,720,"<a href=""https://maps.google.com/maps/contrib/114889022581726092437/photos"">Samy Adel</a>"
32.98879572,70.28743744,Mammon Narai, Shuweda,Pakistan,1,5,6,1,0,""
32.98879572,70.28743744,Mana, Shawal,Pakistan,2,6,5,0,0,""
32.99052353,70.30460358,Shnakhura, Datta Khel,Pakistan,1,5,2,1,1,""
32.99628265,69.65615273,Makai/Maki Ghar, Shawal,Pakistan,1,13,14,0,0,""
33.10937315,70.06702423,Dara, Shawal,Pakistan,1,4,0,0,0,""
32.82103747,69.97999191,Dre Nishter, Shawal,Pakistan,1,3,0,0,0,""
16.539117,49.149095,Qahb al-Hisan,Yemen,1,2,0,0,0,""
16.539117,49.149095,Khashamir village, Al Qatn district,Yemen,1,6,0,2,0,""
16.539117,49.149095,Hawra,Yemen,1,8,0,0,0,""
32.96863543,69.70207214,Degan,Pakistan,1,4,3,0,0,""
14.099622,45.432054,Radaa,Yemen,7,37,4,12,3,540,CmRaAAAAqYn4Tvk2dJyK8NvJP9BKqX7L-MW4zj6EDsFKlK1qk9NjJPgsMynb1rwZg3auSSY-VcVoR20rWwXER7vK1QdJkBcSd7NEa_AwonWdJvKAkVcMc49ujOWDSfCo4nE-cnX0EhD-4Gwmr0DUyDLU1D5ALMc8GhTO-ipgQ4iNxLNMRNdrjuZwEQSVAg,720,"<a href=""https://maps.google.com/maps/contrib/114889022581726092437/photos"">Samy Adel</a>"
16.539117,49.149095,Al Ain village,Yemen,2,11,6,0,0,3264,CmRaAAAALfiOT-LTqsl11Fshr1sikQxe-Z7Wh3LKnUgsNdoj_HAmf2SxnH4z98ABOfAnA8O-ToVkJ9NJYcRD2cI4n5okpzWQsU-dIJLgru_lhA7CeY5rrMfeu4uGm9Xe1EgJAhnZEhBRdGT3co0cQnidqD7og5E_GhR1dpsx05V-0aAa0o6n_yNBdGbY3w,2448,"<a href=""https://maps.google.com/maps/contrib/103300251387946663466/photos"">هاني البحيري</a>"
14.410844,44.840248,Qaifa, near Radaa,Yemen,1,4,0,0,0,""
32.99714649,69.72644806,Mohammed Khel/Datta Khel,Pakistan,1,3,3,0,0,""
32.97857214,70.28657913,Khaderkail/Mir Ali,Pakistan,1,5,2,0,0,""
14.653544,47.009442,Al-Saeed,Yemen,2,7,2,0,0,1052,CmRaAAAAeL94_Vk79vAHyZKNQvveY8al4eVnIoB3tizEHWczMqSj_ceBEC0wFe24H_1Lkc0X3EgLmvCk4ak6Pfr6m2MGebRkLCniZKaUZNhEAZdCOG0SR8blg9EiQ8LUgkMX_kgZEhCH76xh0qQC9YzfVSpISaIUGhQ9zZ5eee31T9HYqHaoRhCBsCIFQQ,1151,"<a href=""https://maps.google.com/maps/contrib/100238468195102188541/photos"">أبّوَ وَسِامٌ ألُوَلُيَدِيَ</a>"
32.9684554,70.25271893,Hurmuz/Mir Ali,Pakistan,1,5,3,0,0,""
33.02133047,69.82566833,Buland Khel,Pakistan,1,16,15,0,0,""
17.015166,44.022514,Wadi al Abu Jabara,Yemen,1,3,1,0,0,""
15.381761,44.21044,Beit al Ahan village,Yemen,1,2,2,0,0,""
32.957941,70.168712,Mubarak Shahi, near Mir Ali,Pakistan,1,4,6,1,0,""
33.00175347,70.01415253,Tabbi, near Miranshah,Pakistan,1,3,0,0,0,""
32.98462003,70.37618637,Hassokhel, near Mir Ali,Pakistan,3,8,4,0,0,""
16.539117,49.149095,Shehr,Yemen,2,5,1,0,0,""
33.01873964,69.65881348,Gurbaz, Shawal,Pakistan,1,4,2,Unknown,0,""
14.099622,45.432054,Al Manaseh,Yemen,1,3,2,0,0,""
32.48659683,69.28321838,Angor Adda, near Wana,Pakistan,1,6,0,0,0,""
32.9700756,70.31078339,Haiderkhel, near Mir Ali,Pakistan,1,4,4,0,0,""
15.519499,45.317648,Wadi Abida,Yemen,5,11,4,0,0,""
15.769722,45.41,Al Kanais,Yemen,1,3,0,0,0,""
15.460938,45.321382,Nakhla,Yemen,1,2,3,0,0,""
16.565146,45.538211,Al Boka,Yemen,1,3,Unknown,0,0,""
15.704444,43.448889,Khawlan,Yemen,1,4,0,2,0,1186,CmRaAAAAsynShhJNOVfVwceAkrhFGPEXJ_7uyMof5GCipMfy90ogqhWqPdr0VPTIzhwQoNXrDl9m_6i_UjgdzCas6ru9r5aSM9GyWL7D1RYq_Mryei9EAZdO2Qi4-cYcGh4LvP3IEhAEM58kRMsXONy_Fo1rcywdGhTsbdYhR7E3eduWi_wFIPbP4E8KHQ,1835,"<a href=""https://maps.google.com/maps/contrib/115502180928776079032/photos"">JR MRH</a>"
13.986689,45.574143,Qayfa,Yemen,1,2,0,0,0,""
32.95826549,70.24108887,Spinwam,Pakistan,1,3,1,0,0,694,CmRaAAAAeFR9pah5QLbnvoK_x5zZm77UGjfXd7OFCcq0qWRLgtFsYc7NvEDTvibRB72XSKeL7KaqON_uMnT0tnZYptMJnPGybnVIWbk3n96Clkyc5hNWfFvu7Ibe43G6jV7ILKCVEhBdhUAb7NVO-C3YPlGHvYkYGhTDCjCKdsWKtK1i82u8FS5zC-4Igw,552,"<a href=""https://maps.google.com/maps/contrib/114480628762838491040/photos"">Innm Wazir 12345</a>"
14.550014,44.400374,Wessab,Yemen,1,4,0,0,0,""
32.97742,70.08634,Chashma village, near Miranshah,Pakistan,1,4,1,0,0,""
16.696709,45.109863,Al Mahashma or Khab al-Shath,Yemen,1,2,0,0,0,""
14.588566,46.332241,Al Saeed,Yemen,1,3,0,0,0,1052,CmRaAAAAgjvXQAS2kS9nWCj5Avc2oAu9MlfwCrA2kMF1CPWVCA8y2ZplbD4FZLcTeNgVU6MCQ7wD0bDbWPHA0pc-RP8NQUzQqrkicbIFqi6l60gu3B5T4Vl77HP9nbDc2Vq8g1_GEhAxCsDGwxkMJYPZee1Xb_kIGhTdxGdsJIHAN8lVkAJhHUPLE3bWLQ,1151,"<a href=""https://maps.google.com/maps/contrib/100238468195102188541/photos"">أبّوَ وَسِامٌ ألُوَلُيَدِيَ</a>"
15.904444,48.568056,Wadi Ser,Yemen,1,3,3,0,1,""
15.519499,45.317648,Wadi Abeeda,Yemen,6,19,0,0,0,""
14.98284,46.59975,Markha,Yemen,2,8,3,0,0,""
14.635202,49.008491,Al Oyoun,Yemen,1,2,0,0,0,1530,CmRaAAAAIu7NJRnVykhl_XpVcXVCwxOQc3I4t9rggPXiGvwpNY-oHgNCfEfT1ViI0LRzAQ729oTIHAhBzS23YSZfQh1g7DCWLC1OT7DjyKP84lBSs0oaO541PrKjvuGTDjphqFxvEhCPu2isxhSUwi-T-2B4rTVoGhQD2NvhFtqyS8Zm2t2ts_4LJfiHsQ,2048,"<a href=""https://maps.google.com/maps/contrib/117271360267545383430/photos"">Tanawat Srichoosin</a>"
13.232191,44.777508,Al Askariya,Yemen,1,2,2,0,0,""
14.099622,45.432054,Manasseh,Yemen,1,4,0,0,0,""
32.96201033,70.33344269,Hassokhel,Pakistan,1,3,1,0,0,540,CmRaAAAArh6Xwqnm7ID-hv4o9xhOzujbSz5vHAJ-BDR6frtiTtqIA3BO8M6UUzx-P_0Y_9NNLySiwk-w0-VFcs5xHGSyebrl1UhPLZ3W7gCG7vRjzW9Nn2r18TMArDx9OKyJTvGQEhDal0tgz37N-6fliVSTc98-GhQLnDK6g7t6YgaEm09a1C3aV1QFPw,720,"<a href=""https://maps.google.com/maps/contrib/114397529863512072918/photos"">Jon Smith</a>"
0.4932,42.77408,Jilib,Somalia,2,5,0,0,0,""
33.0017,70.0673,Zafar area of Miranshah,Pakistan,1,0,3,0,0,""
15.993,48.847,Ghayl Bawazir,Yemen,1,3,0,0,0,768,CmRaAAAAftF2YgLN-lQ6TLO6ccpo899Ae8wq_1fVwDDpxFTIT8rhZhPtmP22r8Gm37syOoU_nS_yhLoRyhMSwCV7DO6IFVs35LdxYFhyIyXswL03qfAEIIwb1JFsFanwWGIwuXZIEhBtRmWzCFWWyyTtPai1_ADNGhTV7YzNSIOK7mjPS2ML-xL4xNx8Aw,1024,"<a href=""https://maps.google.com/maps/contrib/109223341387921255370/photos"">عبدالله عبدالله</a>"
33.4644138,70.9798979,Tal, Hangu District,Pakistan,1,5,1,0,0,""
14.40948662,44.84022741,Rada'a,Yemen,2,15,5,6,0,540,CmRaAAAAod1QcgMBDDBJ0NHXB7pCuqHbYZMpPIczj4wVGH7alyN2zsDghSTeAQrVwQ5n6wMdX3d7MNBfsfUx77ziHc41_pkMp9BrCdm52HKrPB1SxA2K3RPZqTwPR3LxiAMueoCwEhCNZtu9BCUKXH5n91tG9mqdGhTnB76KqcP8gyoRiB8Jkdj6UJMZNw,720,"<a href=""https://maps.google.com/maps/contrib/114889022581726092437/photos"">Samy Adel</a>"
34.23152137,71.04002456,Lal Pur,Pakistan-Afghanistan Border,1,7,2,0,0,""
32.98418805,70.07663727,Qutab Khel, Miranshah,Pakistan,1,3,1,0,0,""
15.9102365,48.61546852,Al-Houta, near Shibam,Yemen,1,1,0,0,0,""
0.538867787,43.05437987,Hawai,Somalia,1,2,0,0,0,""
15.45017719,45.3186518,Shebwan,Yemen,1,2,2,0,0,649,CmRaAAAADw-tmeuk4Zr9Bh1wehDPK7uBLsz7FIcvPNU0wA7gFlP7rHnDig3bP25LpHGLIbntTdSgho8AlCajOmuyOxhmXrd88TXHcEGRLVkiRWDJlv9y0-w84IJykAPiFPO6IM4gEhDPKCb5vffoymQtFY7T0svNGhT9SPxmaPy838ABgKJkYhaXVPes0A,720,"<a href=""https://maps.google.com/maps/contrib/114944008170581487437/photos"">فضل لشرف</a>"
14.03640126,46.77107878,Mayfaa,Yemen,1,2,2,0,0,""
16.565146,45.538211,Khalka,Yemen,1,2,0,0,0,""
17.34012923,43.55072601,Jebel Jame,Yemen,1,2,0,0,0,""
14.08533567,45.80343227,Sawma'ah,Yemen,1,13,1,3,0,""
14.04874019,46.91922791,Mahfad,Yemen,2,29,1,0,1,""
14.6757656,46.29878849,Usylan,Yemen,1,3,0,0,1,""
33.07804735,69.91707654,Tabi Tolkhel,Pakistan,1,4,0,0,0,""
33.03137271,70.02775522,Dande Darpa Khel,Pakistan,2,10,6,0,0,""
14.47769544,46.15628273,Mafraq al-Saeed,Yemen,1,5,0,0,0,""
16.367958,49.545398,Hadhramaut Province,Yemen,2,7,0,0,0,3456,CmRaAAAAImWedZNJ4O3P_locEP1LOGRqPI7EovoMRWqnWlvhu3wn17-tklDOSEclkbwEHHfWYdbLY-iPJCxPUsaWkV0dBRAlfKlWk4-CCDNFBOvPJ16M5F6U_OQhYOUAYMF1b06vEhDIMBcptPRnACOBxwNvr9cFGhSxFeNBUPJH5PGh96dkxJHs29kmmA,5184,"<a href=""https://maps.google.com/maps/contrib/110468190451032754090/photos"">San Tube</a>"
1.206811,43.873565,Baraawe,Somalia,1,6,0,0,0,720,CmRaAAAATtC-CCgjFaFYQ3nRnN_VFGYV2_OtRxD0qr668F7rWk0d7mY6Pr1Fg4ILt15ZOEfReQNaNdXLWbhP4BYPJpCZK95A-7JIW6rz9HCEb7OxXoTfiBt9KHmi2l-A_nM0pZO7EhBJbl9v25PHPiUayap-3FEJGhRbY9U4igYz2EkuCsGNv-Gq_QPyKQ,960,"<a href=""https://maps.google.com/maps/contrib/102012430303747528518/photos"">Cumar Hilowle</a>"
16.16924,44.796697,Khasaf,Yemen,1,2,3,0,0,""
32.804136,69.681201,Marga/Shawal,Pakistan,1,2,0,0,0,""
14.265494,47.588714,Bani Assaf/Mayfaa district,Yemen,1,4,0,0,0,""
32.312553,69.405773,Nargas Village/Azam Warsak,Pakistan,1,4,0,0,0,""
14.319685,47.442831,Azzam,Yemen,1,6,0,0,0,720,CmRaAAAAqrJ3YUVDVZx9wg6rvSlU3ovUh01Jqtk_7Ow7W51f16FxB9uiezErwq7cC8pb4rCWTtdfoYlMSiUm1amspPs3KInKZZ5tu3SsMSxm-cychJxnN6RK7ChUztDgrIF8j3ECEhCaSvlDrrYoOJvSrEWUN5k8GhTQ7UVooLNJR3r9qkkNMt6s482qOw,960,"<a href=""https://maps.google.com/maps/contrib/113490400253777297569/photos"">Awadh Ali</a>"
32.895606,69.72912,Madakhel/Datta Khel,Pakistan,1,5,2,0,0,""
32.713078,69.586956,Garga/Shawal,Pakistan,1,4,2,0,0,""
32.931972,69.755025,Khar Tangi Village/Datta Khel,Pakistan,1,4,2,0,0,""
1.6378,42.456479,Saakow,Somalia,1,2,0,0,0,""
33.141547,70.031364,Lawara Mandi/Datta Khel,Pakistan,1,6,0,0,0,""
32.567156,69.829475,Tehsil Ladha,Pakistan,1,4,3,0,0,""
2.404201,42.973463,Dinsoor,Somalia,1,2,0,0,0,360,CmRZAAAAtCc_Fi_J81Ph2TYt8zJB0HlF1JnKHpNbaAsAi1kjEJ26al_vSFtJv756luVM3uxrUJ3y4EYfyQZ4QYXAh5x1UNAabEUge99zWrLJz1U8T1cM0lloZZUaWIjcup9GIYc9EhDqPaYl6tbFSBigwbQ_R8mpGhTWSzhILyHkfnBX1ncD6m2fsDWWRQ,480,"<a href=""https://maps.google.com/maps/contrib/107733756773711669869/photos"">Cismaan Maxamed</a>"
14.443052,44.816408,Maswara,Yemen,1,3,0,0,0,""
14.094725,47.735589,Al Houta,Yemen,1,2,0,0,0,800,CmRaAAAACPqw6K-dCf96SuJ2QtaCPs--VCZQuNxn0RXfW02BjaGVA0GOzpSmuth0O6Yh9wGrE369rbRGPqomi2n1DMpP1hIcH9XaKVUFrBIKgxtUW_ndjLYkQRCdGgAVcEcy3nw0EhBMOUj9PIPc121KhjOLfrt9GhTCsir3vGMjlEbhwDlKbujwRriyZg,1080,"<a href=""https://maps.google.com/maps/contrib/115081562327070330782/photos"">Yasser Alyasre</a>"
14.819049,45.727767,Bihan,Yemen,1,3,0,0,0,720,CmRaAAAADBOZUEUDDbC0sHf55_srhTytq76buivrlmlMPoj-6WptdoT5TWvdHce1TT6lXf2u96br53YG9phcJSJB8XOZ-3zUvmc60DPgjGMNCJDr-KkKYetv2HnugVjvdu79iDhFEhBgIsdBetQGl-xNdTGhz5KVGhQV28AMWjdlENeOYxdcOa5lLhHXEw,1280,"<a href=""https://maps.google.com/maps/contrib/116954731455938476464/photos"">عبدربه المنصوري العريفي</a>"
2.340207,42.301185,Baardheere,Somalia,2,5,0,0,0,480,CmRaAAAAnVdOe_sAHgAtEf0PgTDxYviQzrFv8A_733rMtAEdDF8uvO6TktQmgcjLg6WuVoTKuzptqwwd6hm4bhlWc0nB2ua-zkq6uu33r_mt7-ef3jzyyY7wFQrjtZRVu3y9YDucEhBlPRCbMj-kbalSl6UDNN7KGhShcYajomIFbwIPDnWO65h5yjSLoQ,720,"<a href=""https://maps.google.com/maps/contrib/104511249374812251489/photos"">Abdalla saleh</a>"
14.534377,49.152317,Mukalla,Yemen,9,36,2,0,0,720,CmRaAAAAfIZlpIfllRgt26T4cT1sMW45K5sHvS527tbVJ2qd87SK4eLDRtXmfhvGbXnY1KqC20Infmz3AHf2su6L796qZ4sQ5pWkJoRTKxl1LaqEMlonhwAop2sBimDbejEnWFEsEhCM85SOdmU7RHzUHkm415UJGhT44tJ3fu4f1Nw2w9-30ECWbFStaA,960,"<a href=""https://maps.google.com/maps/contrib/116678750589547985524/photos"">مجاهد صالح باكرمان</a>"
14.541251,46.825365,Ataq,Yemen,1,1,0,0,0,556,CmRaAAAAq90oUzN3ECHQUwQ_T-lcDplbFPZeVSxrum4UhU2T3a2SmRWFiVeicdyCI4E2UJdeO8NCh4X-UBQFKP1wBmwSL4q66VRbqYvuWhQcslFBYsZGWsvi7ro1oArdfRMGi_I6EhBPz3zrPcE7tah7Ut83FCp6GhSf4fDcxPGlsS4B797XjX1tvnF57g,791,"<a href=""https://maps.google.com/maps/contrib/102997988280407559549/photos"">ردفان المكافح</a>"
14.566056,46.707753,Shabwah,Yemen,1,3,0,0,0,649,CmRaAAAAaeZqNqn-mHVxdpfmgmtfwQEGA59Uf4MsVarMy86ZaSDHuUEi97Ujuldyy3JfNQfpvuomIevhHvx0M5mGfBMA8Ik4JB79xkTDcBi9VMv5f6lFbcaFFAw1mkIefpQHctH9EhAbktYRmKt0-sR2B4Br7bm9GhRi8XMdLxhZ-IYHNi6hW-dS8xEpBg,720,"<a href=""https://maps.google.com/maps/contrib/114944008170581487437/photos"">فضل لشرف</a>"
32.70913,69.623297,Zoya Saidgai, Shawal,Pakistan,1,7,4,0,0,""
14.463728,47.27814,Rafadh,Yemen,2,7,0,0,0,""
14.06686,46.908802,Wadi Dikha,Yemen,1,4,0,0,0,""
14.925974,45.503675,Harib,Yemen,1,3,0,0,0,""
15.994549,44.817237,Jawf/Marib Border,Yemen,1,4,0,0,0,""
15.515821,45.372615,Marib City,Yemen,1,2,0,0,0,716,CmRaAAAAEJORfgLXXeSD_PMqAqq-gY6AwmApDzV_Pu55RWbwc_0Xq6AoYir7kbhreLisHP90_Z8EDpX-M2rQjNBHVGwhgR90BGtzDC-j8PkdEbLL4DK3y9wXkdt62pragUOZppQ7EhAjXCn9zHqTIyIGuvTVA9UdGhSpDUiYOlowRruLU3NahkJyeZpiWQ,716,"<a href=""https://maps.google.com/maps/contrib/109295648168801779286/photos"">محمد العقاب</a>"
2.618306,45.178012,Balad Amin,Somalia,1,5,0,0,0,""
1.641456,44.266686,Shanta Ameerika,Somalia,1,5,0,0,0,""
14.571209,45.642549,Nata,Yemen,1,4,0,0,0,3240,CmRaAAAAO-1DQje1hD61IVrIlpcpWinHdIQ8XC6_D1KEinKabyCgtIrbcBkP3ZIyVZh4uJ_WUoM5mHHC8mjnP_4h0Onzy4_HppKb6A9YfVXh_qtkcOCHJJKuNFgAjhoaPGUYx8eOEhDA_CWtyZnzz8aZfDx-B2UJGhSkotAPRy6LPkLWMAvaa6K6Q4h2-A,4320,"<a href=""https://maps.google.com/maps/contrib/115552670291609388197/photos"">sandile mseti zulu</a>"
15.9495,48.8096,Sayoun,Yemen,1,2,0,0,0,2000,CmRaAAAA4FVfq1phpuVOIgGtHjeZGFiVo3ygBi7L5SdsTIndorSWloO_2_Zq-4gyyEz0nbe45apFdEmI-TPb8sID8659NkAUzIBro5mNQ5zzl9bS5-EFYIpC3XD8u5MmiKINxQNbEhBc6Wehbc8MjDIMzZPeTeYWGhT0DQ8yMLeZwvMmoCXjjmOuWkTfkg,3008,"<a href=""https://maps.google.com/maps/contrib/103418090918893604100/photos"">K Shino</a>"
13.560833,46.156389,Maraquesha,Yemen,1,3,0,0,0,""
14.467,47.2753,Rawda City,Yemen,1,6,0,0,0,2988,CmRaAAAA5dIVYK-f2TxHfg2SUlge1X2PKXJutS4qVuQcikA9cM5rkQX0-HAqG9bPfeiPpK6bFfxx44vB0_HIdATgY7tnNA942Q1LN99QHu-SYCwyFlJa26lwQtQrIJLXc1cXSCg3EhBpE8ePdJ8-6FYOy3dm__smGhSfXE_PSFDSjQY0Fdz1v9w98Mr3SA,5312,"<a href=""https://maps.google.com/maps/contrib/112381383157329581887/photos"">Mohammed Masroor</a>"
13.0578,44.8833,Huta,Yemen,1,3,0,0,0,""
35.158889,71.752778,Shahidano Dhand,Pakistan,1,4,3,0,0,""
14.083333,47.733333,Radhum,Yemen,1,4,0,0,0,""
3.558808,45.054424,Raso,Somalia,1,150,0,0,0,""
13.291111,45.295833,Al Hudhn and Naqeel al Hayala villages,Yemen,1,8,0,0,0,""
13.1333328,45.3666652,Amoudiya,Yemen,1,3,0,0,0,""
2.114609,45.150474,Lafoole,Somalia,1,5,2,0,0,426,CmRaAAAA-czrIdZyCsBGh-cIWvdScTYuyCK6sDJYzItnqwiM_78q9RTLzxkCITwWEQCLG7TvT37lRzkBJNufhhfeLS6NlCt8Wwgyre4QMjUq80_1GIDPFj6GFUa-iXZOC3RL-DPUEhCDrMwFvxqxSTbFNKBJWit3GhTlaZuHnidq0J6JrFlqAUAw9c8xGw,640,"<a href=""https://maps.google.com/maps/contrib/104621126060332544386/photos"">Nasrudiin Ibraahim Salaad</a>"
15.5527,48.5164,Undisclosed,Yemen,1,2,0,0,0,""
29.382158,65.923181,Ahmad Wal,Pakistan,1,2,0,1,0,2786,CmRaAAAAfTuFBTzR6ZJVtZrE5MLGAyWu43RQKh53fGtC3CrHFQQ2r-F-FK_vW_ARVHn40nJ1vB_E8AzD2eVede6uUMhlKo08HPdqHAvN70cuiO6l2D9uzhA3X19KZC9v2yrjiCAjEhCBlUwYEMs7Li_8JHv1rBa8GhTgOuM6cufHdIFwdj5sXzRe-pm4FA,4180,"<a href=""https://maps.google.com/maps/contrib/114201888556629445485/photos"">Oskar Schöldström</a>"
-0.236449190219209,42.6501221419181,South-central Somalia,Somalia,1,1,0,0,0,480,CmRaAAAAhMNBxeLav3IUBL0i9u4RS3puVvFTS37gYHi2XVndML38j42w4m9_br7ZX9IEY9uPJxACwW0gTIVqSGLN34eg4oeh5sz0ZSBl0FgZtoOjel7n1slZbGBFp5zErBYhUPZzEhBK0vBdFc5r-Y4oO-g_mUciGhSOO14jVf4G_J2Y9zOjm_xt2o0vrw,640,"<a href=""https://maps.google.com/maps/contrib/106950248786445076682/photos"">zeinab2972010</a>"
14.877012,45.805508,Multiple cities,Yemen,2,34,1,0,0,""
14.9543,47.0583,Gardan,Yemen,1,3,0,0,0,2988,CmRaAAAAUMfnlVVybglK-yfncmXNLAHLsTVyIdtD_VaZqfwlg6kdyl1Y0jcVBAYMQIoUAnOlbn43itp6PNykjuUoe4jHnKsHiDhUn--Zkn_XGmnffFJZ1VGnnDw7Fe1q-N-ydWsVEhCVDIDfT8OdNtLJ5yrTKwmmGhRpkdEyfEwWfVR8LznwVXdEmzeZIw,5312,"<a href=""https://maps.google.com/maps/contrib/100855043054596778882/photos"">Murad Alkaff</a>"
14.85,49.966667,Musaina,Yemen,1,3,0,0,0,""
15.0474,45.1887,Jabul,Yemen,1,4,0,0,0,""
15.324934,46.816585,Al Uqlah,Yemen,1,3,0,0,0,""
13.883333,44.833333,Sawmaa,Yemen,2,5,0,0,0,742,CmRaAAAAfvwwD8J36it9_8ehOrdR4H6Y27-X7roGcOPtKOOWsMse_CtrFw524WWgi0wJEBZlU2EMZ6MGyV1ArtbWA4GDYjJseKbEdTIO4W-ehC851EhJFgjWQ55fltIisSZcI2MMEhDCTvqmkrNW87_s9Q16lvfzGhRG2lmRf4DEdub_wIWZ3Vy8b19yfA,990,"<a href=""https://maps.google.com/maps/contrib/117786332527661016439/photos"">Belal AL-saafani</a>"
14.51287,44.922427,Yakla,Yemen,2,41,7,25,0,""
32.333333,67.883333,Sra Ghundai,Pakistan,1,2,0,0,0,""
